{
    "cities": [
      {
        "cityName": "Barcelona",
        "latitude": 41.3888,
        "longitude": 2.1629,
        "buildings": [],
        "grid": [
          ["House1", "House2", "Market1", "StoneRoad1", "House1"],
          ["House1", "House1", "House1", "StoneRoad1", "House2"],
          ["House2", "House2", "House1", "StoneRoad1", "House1"],
          ["House1", "House2", "House2", "Market1", "House1"]
        ]
      },
      {
        "cityName": "Valencia",
        "latitude": 39.4623,
        "longitude": -0.3833,
        "buildings": [],
        "grid": [
          ["House1", "House2", "Market1", "StoneRoad1", "House1"],
          ["House1", "House1", "House1", "StoneRoad1", "House2"],
          ["House2", "House2", "House1", "StoneRoad1", "House1"],
          ["House1", "House2", "House2", "Market1", "House1"]
        ]
      },
      {
        "cityName": "Roma",
        "latitude": 41.9031,
        "longitude": 12.4742,
        "buildings": [],
        "grid": [
          ["House1", "House2", "Market1", "StoneRoad1", "House1"],
          ["House1", "House1", "House1", "StoneRoad1", "House2"],
          ["House2", "House2", "House1", "StoneRoad1", "House1"],
          ["House1", "House2", "House2", "Market1", "House1"]
        ]
      },
      {
        "cityName": "Firenze",
        "latitude": 43.7617,
        "longitude": 11.2904,
        "buildings": [],
        "grid": [
          ["House1", "House2", "Market1", "StoneRoad1", "House1"],
          ["House1", "House1", "House1", "StoneRoad1", "House2"],
          ["House2", "House2", "House1", "StoneRoad1", "House1"],
          ["House1", "House2", "House2", "Market1", "House1"]
        ]
      },
      {
        "cityName": "Marseilles",
        "latitude": 43.2933,
        "longitude": 5.3759,
        "buildings": [],
        "grid": [
          ["House1", "House2", "Market1", "StoneRoad1", "House1"],
          ["House1", "House1", "House1", "StoneRoad1", "House2"],
          ["House2", "House2", "House1", "StoneRoad1", "House1"],
          ["House1", "House2", "House2", "Market1", "House1"]
        ]
      }
    ]
  }
  